region,city,name,city_lat,city_long
Lombardia,Milano,Clonit,45.46427,9.18951
Piemonte,Novara,Fleming Research,45.44694,8.62118
Lazio,Pomezia,Sosepharm-1,41.66931,12.50124
Lazio,Anagni,Sosepharm-2,41.7435,13.15542
Veneto,Padova,AB Analitica,45.40797,11.88586
Emilia Romagna,Bologna,OACP,44.49381,11.33875
